[
    {
        "name": "서울대치초등학교",
        "category": "초등",
        "address": "서울특별시 강남구 양재천로 363",
        "lat": 37.4985,
        "lon": 127.0630,
        "note": "명문 대치초, 대청중 학군"
    },
    {
        "name": "서울대도초등학교",
        "category": "초등",
        "address": "서울특별시 강남구 선릉로 209 (도곡동)",
        "lat": 37.4920,
        "lon": 127.0485,
        "note": "도곡동 위치, 우수학군"
    },
    {
        "name": "대청중학교",
        "category": "중등",
        "address": "서울특별시 강남구 양재천로 321",
        "lat": 37.4929,
        "lon": 127.0652,
        "note": "대치동 명문 중학교"
    },
    {
        "name": "숙명여자중·고등학교",
        "category": "중등",
        "address": "서울특별시 강남구 남부순환로 2807",
        "lat": 37.4892,
        "lon": 127.0537,
        "note": "도곡동 위치"
    },
    {
        "name": "단대부중·고등학교",
        "category": "중등",
        "address": "서울특별시 강남구 도곡로64길 21",
        "lat": 37.4974,
        "lon": 127.0583,
        "note": "단대부중"
    },
    {
        "name": "단대부고",
        "category": "고등",
        "address": "서울특별시 강남구 도곡로64길 21",
        "lat": 37.4974,
        "lon": 127.0583,
        "note": "단대부고"
    },
    {
        "name": "경기여고",
        "category": "고등",
        "address": "서울특별시 강남구 삼성로 29",
        "lat": 37.4860,
        "lon": 127.0635,
        "note": ""
    },
    {
        "name": "래미안대치팰리스(1·2차)",
        "category": "단지",
        "address": "서울특별시 강남구 삼성로51길 37 (대치동 1027)",
        "lat": 37.4978,
        "lon": 127.0595,
        "note": "대장급"
    },
    {
        "name": "대치SK뷰",
        "category": "단지",
        "address": "서울특별시 강남구 삼성로51길 25 (대치동 1029)",
        "lat": 37.4985,
        "lon": 127.0590,
        "note": "초역세권"
    },
    {
        "name": "대치아이파크",
        "category": "단지",
        "address": "서울특별시 강남구 선릉로 222 (대치동 888)",
        "lat": 37.4969,
        "lon": 127.0617,
        "note": "한티역권"
    },
    {
        "name": "은마아파트",
        "category": "단지",
        "address": "서울특별시 강남구 삼성로 212 (대치동 316)",
        "lat": 37.4995,
        "lon": 127.0652,
        "note": "재건축 상징"
    },
    {
        "name": "대치 삼환아르누보2(본사)",
        "category": "부동산",
        "address": "서울특별시 강남구 도곡로 405 (대치동 938)",
        "lat": 37.4965,
        "lon": 127.0570,
        "note": "507호"
    },
    {
        "name": "대치1동주민센터",
        "category": "관공서",
        "address": "서울특별시 강남구 남부순환로391길 19",
        "lat": 37.493866,
        "lon": 127.063236,
        "note": "행정복지"
    }
]