[
  {
    "name": "서울대치초등학교",
    "category": "초등",
    "address": "서울특별시 강남구 삼성로 151 (선경아파트 단지내)",
    "lat": 37.4918,
    "lon": 127.0585,
    "note": "선경아파트 단지 한가운데 (대치역 인근)"
  },
  {
    "name": "서울대도초등학교",
    "category": "초등",
    "address": "서울특별시 강남구 선릉로 221 (숙명여고 위, 선릉로변)",
    "lat": 37.4925,
    "lon": 127.0535,
    "note": "숙명여고 북쪽, 선릉로 대로변"
  },
  {
    "name": "대청중학교",
    "category": "중등",
    "address": "서울특별시 강남구 양재천로 321 (개포우성 1·2차 사이)",
    "lat": 37.4898,
    "lon": 127.0572,
    "note": "양재천변, 개포우성 옆"
  },
  {
    "name": "숙명여자중·고등학교",
    "category": "중등",
    "address": "서울특별시 강남구 남부순환로 2807 (도곡역 3번출구 잎)",
    "lat": 37.4910,
    "lon": 127.0549,
    "note": "도곡역 3번출구 코너"
  },
  {
    "name": "단대부중·고등학교",
    "category": "중등",
    "address": "서울특별시 강남구 도곡로64길 21 (아이파크와 래대팰 사이)",
    "lat": 37.4950,
    "lon": 127.0570,
    "note": "아이파크와 래미안대치팰리스 사이"
  },
  {
    "name": "경기여고",
    "category": "고등",
    "address": "서울특별시 강남구 삼성로 29",
    "lat": 37.4860,
    "lon": 127.0635,
    "note": "명문 여고"
  },
  {
    "name": "래미안대치팰리스(1·2차)",
    "category": "단지",
    "address": "서울특별시 강남구 삼성로51길 37 (주민센터 쪽으로 이동)",
    "lat": 37.4950,
    "lon": 127.0585,
    "note": "주민센터 가까이 이동"
  },
  {
    "name": "대치SK뷰",
    "category": "단지",
    "address": "서울특별시 강남구 삼성로51길 25 (서울교회 옆)",
    "lat": 37.4958,
    "lon": 127.0596,
    "note": "서울교회와 래대팰 사이"
  },
  {
    "name": "대치아이파크",
    "category": "단지",
    "address": "서울특별시 강남구 선릉로 222 (주민센터 위쪽)",
    "lat": 37.4945,
    "lon": 127.0555,
    "note": "주민센터 바로 위쪽"
  },
  {
    "name": "은마아파트",
    "category": "단지",
    "address": "서울특별시 강남구 삼성로 212 (대치동 316)",
    "lat": 37.4995,
    "lon": 127.0652,
    "note": "재건축 상징"
  },
  {
    "name": "대치 삼환아르누보2(본사)",
    "category": "부동산",
    "address": "서울특별시 강남구 선릉로 315 (한티역 롯데백화점 건너편)",
    "lat": 37.4977,
    "lon": 127.0532,
    "note": "롯데백화점 건너편, 507호"
  },
  {
    "name": "대치1동주민센터",
    "category": "관공서",
    "address": "서울특별시 강남구 남부순환로391길 19",
    "lat": 37.4932,
    "lon": 127.0568,
    "note": "동부센트레빌 후문 골프연습장 옆"
  }
]